{
    "places": {
      "174": {
        "id": "174",
        "imageLink": "http://h5p.org/sites/default/files/h5p/content/292659/images/image-5b6c21bd54857.jpg",
        "latitude": "41.1775",
        "longitude": "-8.5946",
        "name": "FEUP Library",
        "type": "Library",
        "tags": [
          "Computers",
          "Outlets",
          "Natural Light",
          "Co-Working",
          "Silence",
          "Internet",
          "Coffee",
          "Food"
        ]
      },
      "368": {
        "id": "368",
        "imageLink": "https://sigarra.up.pt/up/pt/imagens/album/n329",
        "latitude": "41.152832",
        "longitude": "-8.637582",
        "name": "FCUP Library",
        "type": "Library",
        "tags": [
          "Outlets",
          "Natural Light",
          "Co-Working",
          "Silence",
          "Coffee",
          "Food",
          "Internet"
        ]
      },
      "491": {
        "id": "491",
        "imageLink": "https://biblioteca.med.up.pt/wp-content/uploads/2017/04/1-1024x397.jpg",
        "latitude": "41.179267248047395",
        "longitude": "-8.600080002862496",
        "name": "FMUP Library",
        "type": "Library",
        "tags": [
          "Computers",
          "Co-Working",
          "Silence",
          "Outlets",
          "Food",
          "Internet",
          "Natural Light"
        ]
      },
      "696": {
        "id": "696",
        "imageLink": "https://omega.com.pt/wp-content/uploads/2016/11/%C2%A9Telmo-Miller-8181-copy.jpg",
        "latitude": "41.178835",
        "longitude": "-8.606639",
        "name": "ISEP Library",
        "type": "Library",
        "tags": [
          "Outlets",
          "Internet",
          "Food",
          "Natural Light",
          "Co-Working",
          "Silence",
          "Coffee"
        ]
      },
      "756": {
        "id": "756",
        "imageLink": "https://ler.letras.up.pt/uploads/ficheiros/18955.JPG",
        "latitude": "41.150500",
        "longitude": "-8.632937",
        "name": "FLUP Library",
        "type": "Library",
        "tags": [
          "Internet",
          "Natural Light",
          "Silence",
          "Co-Working",
          "Coffee",
          "Food",
          "Outlets"
        ]
      },
      "127": {
        "id": "127",
        "imageLink": "https://oliviahouses.com/wp-content/uploads/2023/06/jardim-botanico-porto-olivia.webp",
        "latitude": "41.154287",
        "longitude": "-8.643268",
        "name": "E-Learning Cafe Botânico",
        "type": "Cafe",
        "tags": [
          "Coffee",
          "Internet"
        ]
      },
      "412": {
        "id": "412",
        "imageLink": "https://lh3.googleusercontent.com/proxy/vZdtAqQBb3WCFntjm3TNW_dz8Vh_ko1isJyWqlNPjbUqKAzbEwA8d1kn5wncKMIDHspiZnUypgbIp0LRkoh1LEfRMIjgQ50REafUCnorprX7iq5Gv2Ocx4W3T-LLgx0-RA",
        "latitude": "41.159148",
        "longitude": "-8.659348",
        "name": "Serralves Library",
        "type": "Library",
        "tags": [
          "Silence"
        ]
      },
      "721": {
        "id": "721",
        "imageLink": "https://convida.pt/images/POIs/CafeCasaMusica-Convida-2017-010.jpg",
        "latitude": "41.158524",
        "longitude": "-8.631066",
        "name": "Casa da Musica Cafe",
        "type": "Cafe",
        "tags": [
          "Coffee",
          "Food",
          "Outdoors",
          "Co-Working",
          "Natural Light",
          "Pet-Friendly"
        ]
      },
      "938": {
        "id": "938",
        "imageLink": "https://www.ucp.pt/sites/default/files/styles/prose_large/public/2018-08/Campus%20Foz%20com%20Verde%20e%20UCP.jpg?itok=r4tT8xuH",
        "latitude": "41.153733",
        "longitude": "-8.672239",
        "name": "Católica Library",
        "type": "Library",
        "tags": [
          "Outlets",
          "Co-Working",
          "Silence",
          "Coffee",
          "Food",
          "Internet"
        ]
      },
      "591": {
        "id": "591",
        "imageLink": "https://www.porto.pt/_next/image?url=https%3A%2F%2Fmedia.porto.pt%2Foriginal_images%2Ffib_biblioteca_municipal_almeida_garrett_janeiro.JPG&w=1460&q=85",
        "latitude": "41.148291",
        "longitude": "-8.626992",
        "name": "Almeida Garret Library",
        "type": "Library",
        "tags": [
          "Silence"
        ]
      },
      "835": {
        "id": "835",
        "imageLink": "https://upload.wikimedia.org/wikipedia/commons/4/4a/Biblioteca_Municipal_Porto-01.jpg",
        "latitude": "41.146022",
        "longitude": "-8.601859",
        "name": "Public Porto Library",
        "type": "Library",
        "tags": [
          "Silence"
        ]
      },
      "276": {
        "id": "276",
        "imageLink": "https://laptopfriendly.co/images/places/porto/e-learning-cafe-u-porto/e-learning-cafe-u-porto%20porto%20e-learning-cafe-u-porto-porto%20.jpg",
        "latitude": "41.174053",
        "longitude": "-8.604083",
        "name": "E-Learning Cafe Asprela",
        "type": "Cafe",
        "tags": [
          "Internet",
          "Co-Working",
          "Coffee",
          "Outlets",
          "Internet"
        ]
      },
      "812": {
        "id": "812",
        "imageLink": "https://noticias.up.pt/wp-content/uploads/2023/06/esplanada-icbas-ffup.jpg",
        "latitude": "41.147282",
        "longitude": "-8.624199",
        "name": "ICBAS/FFUP Terrace",
        "type": "Cafe",
        "tags": [
          "Food",
          "Coffee",
          "Co-Working",
          "Natural Light",
          "Internet"
        ]
      },
      "273": {
        "id": "273",
        "imageLink": "https://noticias.up.pt/wp-content/uploads/2023/06/jardins-faup_02.jpg",
        "latitude": "41.150435",
        "longitude": "-8.626896",
        "name": "FAUP Garden",
        "type": "Garden",
        "tags": [
          "Outdoors",
          "Pet-Friendly",
          "Natural Light",
          "Co-Working",
          "Internet"
        ]
      },
      "823": {
        "id": "823",
        "imageLink": "https://noticias.up.pt/wp-content/uploads/2023/06/estudantes-jardins-fbaup.jpg",
        "latitude": "41.145699",
        "longitude": "-8.601020",
        "name": "FBAUP Garden",
        "type": "Garden",
        "tags": [
          "Outdoors",
          "Pet-Friendly",
          "Natural Light",
          "Co-Working",
          "Internet"
        ]
      },
      "123": {
        "id": "123",
        "imageLink": "https://noticias.up.pt/wp-content/uploads/2023/06/estudantes-jardins-ciencias.jpg",
        "latitude": "41.151854",
        "longitude": "-8.636924",
        "name": "FCUP Garden",
        "type": "Garden",
        "tags": [
          "Outdoors",
          "Pet-Friendly",
          "Natural Light",
          "Co-Working",
          "Internet"
        ]
      },
      "682": {
        "id": "682",
        "imageLink": "https://mapio.net/images-p/37718994.jpg",
        "latitude": "41.150263",
        "longitude": "-8.633480",
        "name": "FLUP Garden",
        "type": "Garden",
        "tags": [
          "Outdoors",
          "Pet-Friendly",
          "Natural Light",
          "Co-Working",
          "Internet"
        ]
      },
      "259": {
        "id": "259",
        "imageLink": "https://noticias.up.pt/wp-content/uploads/2022/03/parque-central-da-asprela-pre.inauguracao_04.jpg",
        "latitude": "41.177150",
        "longitude": "-8.601437",
        "name": "Asprela Park",
        "type": "Garden",
        "tags": [
          "Outdoors",
          "Pet-Friendly",
          "Natural Light",
          "Co-Working"
        ]
      }
    }
  }